108254:!AIVDM,1,1,,B,403Ovk1v0LECDo>jOLEdjPg02<3f,0*16
108254:$GPGGA,211920.
108455:Ef=w02@;t,0*0A
108455:!AIVDM,1,1,,B,403OvkQv0LECDo?Uh<Ef=ew02@;v,0*0B
108857:!AIVDM,1,1,,B,403Othiv0LECDo@FfVEjH=?02H<B,0*68
109058:!AIVDM,1,1,,A,35NRcaPPA0G?u8TE`SSk;@4b00rh,0*57
109259:!AIVDM,1,1,,A,152GndwP00o?nJ`Ed8p>4?vb28<K,0*5B
109259:$GPGGA,211921.
109661:!AIVDM,1,1,,A,403OtVAv0LECEo?IcPE`45702@<b,0*51
110063:!AIVDM,1,1,,B,15Mvht0P1VG?`udE`f0JIOvb0<1m,0*73
110264:$GPGGA,211922.000,3750.1128,N,12225.5299,W,2,10,0.90,-10.6,M,-2
110465:!AIVDM,1,1,,B,ENkb9HI9S@0`897PQT@6;Q@9S@@;W;KG:k><h00003vP000,2
110867:!AIVDM,1,1,,B,15Mi7K0000o?nE<EdjHH5@:h0@=G,0*58
111068:!AIVDM,1,1,,B,13P7rUPuhnG?uUtE`Tv2MR2d0<1k,0*42
111269:$GPGGA,211923.000,3750.1124,N,12225.5291,W,2,10,0.90,-10.5,M,-2
111470:!AIVDM,1,1,,A,ENkb9HQVTV2h97QUah64ST:@@@@;WV9?:l0M`00003vP000,2
111671:!AIVDM,1,1,,B,15NGcj0P01G?aOHE`Vw5lOvf08=s,0*1A
112274:$GPGGA,211924.000,3750.1120,N,12225.5281,W,2,10,0.90,-10.4,M,-2
113279:$GPGGA,211925.000,3750.1118,N,12225.5272,W,2,9,0.98,-10.4,M,-25
113480:!AIVDM,1,1,,B,15NEA8PP00o?VS>Ea@Gh0?vj20Rq,0*41
114083:!AIVDM,1,1,,B,15MvK1PP1ro?epdE`LJ<IOvl20Rs,0*22
114284:$GPGGA,211926.000,3750.1115,N,12225.5263,W,2,10,0.90,-10.2,M,-2
114485:!AIVDM,1,1,,B,ENkb9HQVTV2h97QUah64ST:@@@@;WV9?:l0M`00003vP000,2
114887:!AIVDM,1,1,,A,15NRILPPAfo?S;lE`ijre`Tn28?h,0*7E
115289:$GPGGA,211927.000,3750.1113,N,12225.5253,W,2,10,0.90,-10.1,M,-2
115490:0003vP000,2*56
115691:!AIVDM,1,1,,A,35Mva0U000G?m0REd9W`@1dp2E0J,0*1F
115691:!AIVDM,1,1,,B,
116294:$GPGGA,211928.000,3750.1110,N,12225.5244,W,2,10,0.90,-10.1,M,-2
117299:$GPGGA,211929.000,3750.1107,N,12225.5233,W,2,10,0.90,-10.0,M,-2
117500:!AIVDM,1,1,,B,15N5rePP1Ro?t<rE`O4tRwvr2@AB,0*3E
117902:!AIVDM,1,1,,B,15MrMbPP01o?rw6EW9S09gvt08AU,0*5B
118103:!AIVDM,1,1,,A,15Mw0GP001G?`tNE`WKWJ4Lt0D20,0*72
118103:$GPGGA,2
118304:11930.000,3750.1104,N,12225.5223,W,2,10,0.90,-9.9,M,-25.2,M,000
118505:!AIVDM,1,1,,B,ENkb9Hq9S@:9ah4W17bW2@HW@@@;VrJf:kprh00003vP000,2
118706:!AIVDM,1,1,,A,15NLR3PP1aG?nEtEbA2b?Ovt0D2>,0*0A
119108:$GPGGA,211931.000,3750.1102,N,12225.5211,W,2,10,0.90,-9.8,M,-25
119309:0000,0000*7A
119309:$GPGLL,3750.1102,N,12225.5211,W,211931.000,A,D*45
119510:!AIVDM,1,1,,B,15?;mv002QG?C<tE`snqToc000S1,0*6D
120314:$GPGGA,211932.000,3750.1096,N,12225.5203,W,2,10,0.90,-9.9,M,-25
120917:!AIVDM,1,1,,A,15MvO30P01G?aGtE`VvcDOvv08CD,0*4C
121118:$GPGGA,211933.000,3750.1093,N,12225.5194,W,2,10,0.90,-9.9,M,-25.2,M,0000,0000*7E
121118:$GPGLL,3750.1093,N,12225.5194
121721:!AIVDM,1,1,,A,B5NPL6009ekp`AUJHVNUSwhUoP06,0*69
121721:!AIVDM,1,1,,A,
122123:!AIVDM,1,1,,A,15NGcj0P01G?aOPE`Vwm?gw40D1f,0*14
122123:$GPGGA,211934.,0000,0000*4D
122123:$GPGLL,3750.1090,N,12225.5183,W,211934.000,A,D*4
122525:!AIVDM,1,1,,B,ENkb9I99S@:9ah4W17bW2@I7@@@;V4=v:nv;h00003vP000,2
123128:$GPGGA,211935.000,3750.1088,N,12225.5172,W,2,10,0.90,-10.0,M,-2
123329:D*72
123329:!AIVDM,1,1,,A,ENkb9II9S@:9ah4W17bW2@IW@@@;Uafb:r5Ih00003v
124133:$GPGGA,211936.000,3750.1086,N,12225.5161,W,2,10,0.90,-10.0,M,-2
124334:AIVDM,1,1,,B,15Mv4LP000o?fgTE`8C`VVo:2<1w,0*24
123334:$GPRMC,211936.0084,N,12225.5150,W,2.91,102.88,240116,,,D*74
125138:$GPGGA,211937.000,3750.1084,N,12225.5150,W,2,10,0.90,-10.1,M,-2
125741:!AIVDM,1,1,,A,15?;mv002QG?C3DE`sJIU7c<0@F<,0*70
125741:!AIVDM,1,1,,B,15NR
126143:$GPGGA,211938.000,3750.1081,N,12225.5139,W,2,10,0.90,-10.1,M,-2
126344:N,12225.5139,W,2.71,106.08,240116,,,D*73

126545:!AIVDM,1,1,,B,ENkb9II9S@:9ah4W17bW2@IW@@@;Uafb:r5Ih00003vP000,2
126947:!AIVDM,1,1,,A,15NFO6PP02G?ebnE`DOL0?w<0@Fl,0*3C

127148:$GPGGA,211939.000,3750.1079,N,12225.5129,W,2,10,0.90,-10.1,M,-2
127349:0,A,D*48
$GPGSA,A,3,14,22,32,01,26,03,16,23,31,11,,,1.22,0.90,
127952:!AIVDM,1,1,,B,15Mw0GP001G?`tNE`WKbkDK@0@GJ,0*2D
!AIVDM,1,1,,A,
128153:,1,,B,D03Ovk0s=N>4g<ffpfpNfp0,2*5D
!AIVDM,1,1,,B,D03OvkPtEN>4g
128354:940.000,A,3750.1078,N,12225.5117,W,3.03,99.62,240116,,,D*49
!A
128555:!AIVDM,1,1,,A,15MrMbPP01o?rw0EW9UPA?wB06a<,0*68

128756:!AIVDM,1,1,,A,15NDS<PP00o?cJHE`R4`Kgw@28Gn,0*6D

129158:!AIVDM,1,1,,A,35NRcaPOhpG?uFDE`Si2sAUB00wh,0*21
$GPGGA,211941.
129359:!AIVDM,1,1,,B,15Mvht0P1pG?`TPE`f=rqwwB0<1r,0*4B

129560:!AIVDM,1,1,,A,403OtVAv0LECao?IcPE`45702@HH,0*2B

130163:$GPGGA,211942.000,3750.1074,N,12225.5097,W,2,10,0.90,-10.1,M,-2
130565:!AIVDM,1,1,,B,ENkb9Ia9S@:9ah4W17bW2@Hch@@;Vvd::irt@00003vP000,2
130766:!AIVDM,1,1,,A,15MwlV0P00G@6NfEa5J0T?wD08I4,0*1D

131168:$GPGGA,211943.000,3750.1073,N,12225.5087,W,2,10,0.90,-10.0,M,-2
131369:!AIVDM,1,1,,A,ENkb9Iq9S@:9ah4W17bW2@I;h@@;VG`::gGRh00003vP000,2
131570:!AIVDM,1,1,,B,15Mw0O0P39G?j2BE`5LD>wwF0@IQ,0*64

131771:!AIVDM,1,1,,B,15NGcj0P00G?aOPE`W0U6wwF0@Ie,0*7C

131972:!AIVDM,1,1,,B,15MvO30P00G?aGnE`VwKDOwF0L1d,0*6A

132173:$GPGGA,211944.000,3750.1072,N,12225.5077,W,2,10,0.90,-9.9,M,-25
132374:06
$GPGSV,4,1,13,32,72,105,34,03,64,319,39,31,46,049,42,48,44,
133178:$GPGGA,211945.000,3750.1071,N,12225.5066,W,2,10,0.90,-9.9,M,-25
134183:$GPGGA,211946.000,3750.1069,N,12225.5056,W,2,10,0.90,-9.9,M,-25
134585:!AIVDM,1,1,,B,ENkb9Iq9S@:9ah4W17bW2@I;h@@;VG`::gGRh00003vP000,2
134786:!AIVDM,1,1,,A,15Mv4LP000
134987:G?fgHE`8=HRnoN2<1w,0*0D

135188:!AIVDM,1,1,,A,15NRILP01fo?Rl4E`iu:bpMN26a<,0*1D
$GPGGA,211947.
135389:!AIVDM,1,1,,A,ENkb9J99S@:9ah4WGWbb@Ich@@@;V4Bb:fND@00003vP000,2
136193:$GPGGA,211948.000,3750.1066,N,12225.5031,W,2,10,0.90,-9.7,M,-25
136394:!AIVDM,1,1,,B,15N8b90P00G?nPdEd9nE`OwP0@LE,0*0C

136997:!AIVDM,1,1,,A,15Mw0GP000G?`tNE`WKrbDIR00SO,0*47

137198:$GPGGA,211949.000,3750.1063,N,12225.5020,W,2,10,0.90,-9.7,M,-25
137399:6,13,147,20,14,06,072,29,09,04,268,20*78
$GPGSV,4,4,13,25,03,0
138002:!AIVDM,1,1,,B,15MrMbPP01o?rw0EW9VPSgwT0@ME,0*17
!AIVDM,1,1,,B,
138203:$GPGGA,211950.000,3750.1061,N,12225.5010,W,2,10,0.90,-9.7,M,-25
138404:!AIVDM,1,1,,B,ENkb9J99S@:9ah4WGWbb@I
138605:ch@@@;V4Bb:fND@00003vP000,2*34

139007:!AIVDM,1,1,,B,15NDS<PP00o?cJFE`R4pLgwV20Re,0*77
139208:
$GPGGA,211951.000,3750.1059,N,12225.4999,W,2,10,0.90,-9.7,M,-2
139409:!AIVDM,1,1,,A,15NLR3PP1bG?mufEb@db=wwV0@N6,0*16
!AIVDM,1,1,,A,
139610:!AIVDM,1,1,,B,403OtVAv0LECko?IcPE`45702<3L,0*21
!AIVDM,1,1,,A,
140213:$GPGGA,211952.000,3750.1057,N,12225.4988,W,2,10,0.90,-9.8,M,-25
141218:!AIVDM,1,1,,A,15MvO30P01G?aGpE`VwsDOw`0<1d,0*18
$GPGGA,211953.
141620:!AIVDM,1,1,,B,15NEA8PP00o?VS2Ea@F@0?wb2@ON,0*3F

142223:$GPGGA,211954.000,3750.1052,N,12225.4968,W,2,10,0.90,-9.7,M,-25
142424:23,16,13,147,17,14,06,072,30,09,04,268,20*76
$GPGSV,4,4,13,25,
142826:!AIVDM,1,1,,B,15Mw0LP002o?e`fE`Bc`dWSf2@P6,0*40

143228:$GPGGA,211955.000,3750.1049,N,12225.4958,W,2,10,0.90,-9.6,M,-25
143429:!AIVDM,1,1,,B,15Mw0O0P3?G?jKrE`4`T7wwf0<2B,0*2B
!AIVDM,1,1,,A,
143630:!AIVDM,1,1,,B,15O?rn0P02o?p?dEW:91r?wf2@Pa,0*6B

143831:!AIVDM,1,1,,B,15?;mv002SG?BVDE`r49Soch0<25,0
144032:*11

144233:!AIVDM,1,1,,B,15NELv002?G?SH8EcK:<ibEh0D1d,0*2A
!AIVDM,1,1,,A,
144635:!AIVDM,1,1,,B,15Mv4LP001G?fgDE`8:8TFoj2@Q:,0*2F

145037:!AIVDM,1,1,,A,15MuU00P00o?fJ`E`=mP3Owj28QK,0*57
!AIVDM,1,1,,B,
145238:$GPGGA,211957.000,3750.1043,N,12225.4939,W,2,10,0.90,-9.4,M,-25
146243:$GPGGA,211958.000,3750.1040,N,12225.4928,W,2,10,0.90,-9.3,M,-25
146444:!AIVDM,1,1,,B,ENkb9Ja9S@:9ah4W17bW2@I9h@@;W?O`:faD000003vP000,2
147047:!AIVDM,1,1,,B,33f=C>5000o?ak8EdeaLADOoP000,0*48
!AIVDM,1
147248:,1,,A,15MrMbPP01o?rw6EW9UhUOwn00Rr,0*65
$GPGGA,211959.000,3750
147449:!AIVDM,1,1,,A,ENkb9Jq9S@:9ah4W17bW2@Iah@@;W?lJ:c6h000003vP000,2
148052:!AIVDM,1,1,,A,D03Ovk06AN>40Hffp00Nfp0,2*52
!AIVDM,1,1,,A,D03Ov
148253:!AIVDM,1,1,,A,15NDS<PP00o?cJFE`R58JOv026a@,0*64
!AIVDM,1,1,,B,
149057:!AIVDM,1,1,,B,B3P>>wh0>ukognUJJ6uo;wP5oP06,0*04

149258:$GPGGA,212001.000,3750.1035,N,12225.4899,W,2,10,0.90,-9.1,M,-25
149660:!AIVDM,1,1,,A,403OtVAv0LED1o?IcPE`45702<3N,0*7D
!AIVDM,1,1,,A,
150062:!AIVDM,1,1,,B,B5NPL6004=kpV85JHWJcOwPUoP06,0*07

150263:$GPGGA,212002.000,3750.1033,N,12225.4887,W,2,10,0.90,-9.0,M,-25
150464:!AIVDM,1,1,,B,ENkb9Jq9S@:9ah4W17bW2@Iah@@;W?lJ:c6h000003vP000,2
151268:$GPGGA,212003.000,3750.1032,N,12225.4876,W,2,10,0.90,-9.0,M,-25
151469:!AIVDM,1,1,,A,ENkb9K99S@:9ah7bb17bW2@J7@@;Ud@4:rg5@00003vP000,2
151670:!AIVDM,1,1,,B,D03OtV@BTNfp00N00mPf9Hm`v9H,2*6D

152072:!AIVDM,1,1,,B,15NGcj0P01G?aONE`W1SmOv80@2K,0*2D

152273:$GPGGA,212004.000,3750.1032,N,12225.4869,W,2,10,0.90,-9.2,M,-25
152876:!AIVDM,1,1,,B,15NEA8PP01o?VS0Ea@GDl?v820Rg,0*7A

153278:$GPGGA,212005.000,3750.1030,N,12225.4860,W,2,10,0.90,-9.2,M,-25
154283:$GPGGA,212006.000,3750.1027,N,12225.4850,W,2,10,0.90,-9.2,M,-25
154484:!AIVDM,1,1,,B,ENkb9K99S@:9ah7bb17bW2@J7@@;Ud@4:rg5@00003vP000,2
154886:!AIVDM,1,1,,A,35Mv4LP000G?fgDE`878Rnn>25MC,0*49

155288:$GPGGA,212007.000,3750.1024,N,12225.4839,W,2,10,0.90,-9.2,M,-25
155489:0003vP000,2*67

155690:!AIVDM,1,1,,B,15?;mv002S
155891:G?BBrE`q:aSWb@00S7,0*18

156293:$GPGGA,212008.000,3750.1021,N,12225.4829,W,2,10,0.90,-9.1,M,-25
156494:!AIVDM,1,1,,B,15NFO6PP01G?ebhE`DO;;wv@00S;,0*41

157298:$GPGGA,212009.000,3750.1018,N,12225.4818,W,2,10,0.90,-9.1,M,-25
157901:!AIVDM,1,1,,A,15NLR3PP1bG?ma:Eb@HJ<wvB00Sd,0*71

158303:$GPGGA,212010.000,3750.1014,N,12225.4807,W,2,10,0.90,-9.1,M,-25
158504:!AIVDM,1,1,,B,15MrMbPP01o?rwHEW9SPNOvF0869,0*33
!AIVDM,1,1,,B,
158906:!AIVDM,1,1,,A,403Othiv0LED:o@FfREjH<g02D2f,0*69

159107:$GPGGA,212011.000,3750.1010,
159308:N,12225.4797,W,2,10,0.90,-9.1,M,-25.2,M,0000,0000*73
!AIVDM,1,
159509:!AIVDM,1,1,,B,403OtVAv0LED;o?IcPE`4570286k,0*50

160112:!AIVDM,1,1,,A,15MvO30P01G?aGpE`VwsDOvF06a@,0*41
$GPGGA,212012.
160313:,3750.1006,N,12225.4786,W,212012.000,A,D*41
$GPRMC,212012.000,
161117:!AIVDM,1,1,,A,15NGcj0P00G?aOPE`W1T6?vJ0H7b,0*4B
$GPGGA,212013.
161318:25.4777,W,212013.000,A,D*4B
$GPRMC,212013.000,A,3750.1003,N,12
161720:!AIVDM,1,1,,A,13P7rUPv@kG?v0lE`V>2HQ
161921:pJ06a@,0*40
!AIVDM,1,1,,B,15Mw0LP001o?e`LE`BcpcGPL26a@,0*76

162122:!AIVDM,1,1,,A,15Mi7K0000o?nDpEdjF6808N088C,0*46
$GPGGA,212014.
162323:0.90,-9.3,M,-25.2,M,0000,0000*7D
$GPGLL,3750.0999,N,12225.4768
162725:!AIVDM,1,1,,B,15NEA8PP00o?VS0Ea@GSlwvL2Ki?,0*48

163127:$GPGGA,212015.000,3750.0996,N,12225.4759,W,2,10,0.90,-9.5,M,-25
163328:25.4759,W,212015.000,A,D*45
$GPRMC,212015.000,A,3750.0996,N,12
163529:!AIVDM,1,1,,A,15MvK1PP1so?e>lE`QUdHwvN2H96,0*71

164132:$GPGGA,212016.000,3750.0992,N,12225.4749,W,2,10,0.90,-9.5,M,-25
164333:,12225.4749,W,3.13,119.07,240116,,,D*7B

164534:!AIVDM,1,1,,B,15NRILP01eo?R@LE`j>:jp`R2<1s,0*2D

164735:!AIVDM,1,1,,B,15Mv4LP001o?fgLE`8;`M6nR26a@,0*3A

165137:$GPGGA,212017.000,3750.0989,N,12225.4741,W,2,10,0.90,-9.7,M,-25
165338:W,3.08,110.58,240116,,,D*71

165539:!AIVDM,1,1,,A,15MuU00P00o?fJNE`=lPmgvR2L2B,0*29

166142:$GPGGA,212018.000,3750.0986,N,12225.4731,W,2,10,0.90,-9.9,M,-25
166343:A,3750.0986,N,12225.4731,W,3.43,110.29,240116,,,D*7F

166544:!AIVDM,1,1,,B,ENkb9Kq9S@:9ah7bb17bW2@Jch@;VDE>:gnMP00003vP000,2
167147:!AIVDM,1,1,,B,15Mw0O0P3CG?k?vE`46CHgvT0<2@,0*39
$GPGGA,212019.
167348:14,22,32,01,26,03,16,23,31,11,,,1.22,0.90,0.82*06
$GPGSV,4,1,1
167549:!AIVDM,1,1,,A,15MrMbPP01o?rwREW9S0Agv`06a@,0*6B

167951:!AIVDM,1,1,,A,D03Ovk1T1N>5N8ffqMhNfp0,2*6A
!AIVDM,1,1,,A,D03Ov
168152:!AIVDM,1,1,,B,D03Ovk1b5N>5N4ffqMhNfp0,2*57
!AIVDM,1,1,,B,D03Ov
168353:0,A,D*4F
$GPRMC,212020.000,A,3750.0978,N,12225.4711,W,3.34,111
168755:!AIVDM,1,1,,B,34a6aP5001o?dO@E`MOsa5n`0000,0*75

169157:$GPGGA,212021.000,3750.0973,N,12225.4702,W,2,10,0.90,-10.0,M,-2
169358:!AIVDM,1,1,,B,15NLR3PP1cG?mK@Eb@8r:wvb0<2>,0*7A

169559:!AIVDM,1,1,,A,403OtVAv0LEDEo?IcPE`45702<3N,0*09

169961:!AIVDM,1,1,,B,15Mvht0P1sG?WhjE`g>:iOvb08<q,0*38

170162:$GPGGA,212022.000,3750.0968,N,12225.4694,W,2,10,0.90,-10.2,M,-2
170363:,A,3750.0968,N,12225.4694,W,2.84,113.99,240116,,,D*7A

170564:!AIVDM,1,1,,B,ENkb9L99S@:9ah7bb17bW2@K;h@;Vs4B:jJQP00003vP000,2
170966:!AIVDM,1,1,,B,13P7rUPv@jG?v4TE`VJRHQpb08=Q,0*01

171167:$GPGGA,212023.000,3750.0965,N,12225.4685,W,2,10,0.90,-10.2,M,-2
171368:!AIVDM,1,1,,A,ENkb9LI9S@:9ah7bb17bW2@J9h@;W6HF:c>T000003vP000,2
171770:!AIVDM,1,1,,B,15NGcj0P01G?aORE`W1TQ?vf06a@,0*0A

172172:$GPGGA,212024.000,3750.0962,N,12225.4675,W,2,10,0.90,-10.3,M,-2
172373:$GPGSV,4,1,13,32,72,105,32,03,64,319,38,31,46,049,40,48,44,196,
172574:!AIVDM,1,1,,B,15MoqLPP01G?blpE`VFpo?vj2D2d,0*10
!AIVDM,1,1,,A,
173177:!AIVDM,1,1,,B,15NEA8PP00o?VRtEa@Fkqwvj2H>g,0*03
$GPGGA,212025.
173378:!AIVDM,1,1,,B,B52P8O@0>=koQM5JI@?3owdUoP06,0*46

173780:!AIVDM,1,1,,B,15MvK1PP1to?e5TE`RTLD?vj2L1v,0*40
!AIVDM,1,1,,A,
174182:$GPGGA,212026.000,3750.0955,N,12225.4654,W,2,10,0.90,-10.4,M,-2
174584:!AIVDM,1,1,,B,ENkb9LI9S@:9ah7bb17bW2@J9h@;W6HF:c>T000003vP000,2
174785:!AIVDM,1,1,,A,15NRILP01do?R4bE`jFbk`Vn26a@,0*27

175187:$GPGGA,212027.000,3750.0952,N,12225.4645,W,2,10,0.90,-10.4,M,-2
175388:!AIVDM,1,1,,A,ENkb9La9S@:9ah7bb17bW2@Jah@;W6HF:faD000003vP000,2
175991:!AIVDM,1,1,,B,15N8b90P00G?nPVEd9o58wvn00Sl,0*56

176192:$GPGGA,212028.000,3750.0948,N,12225.4634,W,2,10,0.90,-10.4,M,-2
176795:!AIVDM,1,1,,B,15N05I0P06G?RBvEbieDRwvr08@n,0*33

177197:$GPGGA,212029.000,3750.0946,N,12225.4623,W,2,10,0.90,-10.4,M,-2
177398:9,29,22,26,128,25*7D
$GPGSV,4,3,13,11,19,217,18,16,13,147,17,1
178001:!AIVDM,1,1,,A,15Mw0GP000G?`tNE`WKaQTJt0@AW,0*28

178202:$GPGGA,212030.000,3750.0942,N,12225.4613,W,2,10,0.90,-10.5,M,-2
178403:!AIVDM,1,1,,A,B3P>>wh0<ukogA5JIcEgcwg5oP06,0*4B
!AIVDM,1,1,,B,
178604:kb9La9S@:9ah7bb17bW2@Jah@;W6HF:faD000003vP000,2*5C
!AIVDM,1,1,
179207:$GPGGA,212031.000,3750.0940,N,12225.4600,W,2,10,0.90,-10.6,M,-2
179609:!AIVDM,1,1,,B,403OtVAv0LEDOo?IcPE`457028BQ,0*6A

180212:$GPGGA,212032.000,3750.0937,N,12225.4589,W,2,10,0.90,-10.6,M,-2
180413:!AIVDM,1,1,,A,13P7rUPv0iG?v:<E`VkRHQnv0<1k,0*0E

181016:!AIVDM,1,1,,A,15MvO30P00G?aH0E`VwsDOw006a@,0*78

181217:$GPGGA,212033.000,3750.0934,N,12225.4579,W,2,10,0.90,-10.7,M,-2
181418:!AIVDM,1,1,,A,15Mi7K0000o?nE8EdjG80h940<2B,0*24

182222:!AIVDM,1,1,,A,15NGcj0P01G?aOPE`W1Eg?w40@D3,0*5F
$GPGGA,212034.
182423:,13,25,02,030,20*4F
$GPRMC,212034.000,A,3750.0931,N,12225.4570
182825:!AIVDM,1,1,,B,15Mw0LP002o?e`LE`BcHJGS62@DH,0*46

183227:$GPGGA,212035.000,3750.0927,N,12225.4562,W,2,10,0.90,-10.8,M,-2
183428:!AIVDM,1,1,,B,15O?rn0P01o?p@REW:@B7Ow62<29,0*08

184232:$GPGGA,212036.000,3750.0924,N,12225.4553,W,2,10,0.90,-10.8,M,-2
185237:$GPGGA,212037.000,3750.0919,N,12225.4545,W,2,10,0.90,-10.8,M,-2
185438:!AIVDM,1,1,,A,15MuU00P01o?fJ6E`=le2ww:28Et,0*76

185639:!AIVDM,1,1,,A,15Mw0O0P3@G?ksVE`4;kLOw:0L2C,0*40

185840:!AIVDM,1,1,,A,15?;mv002TG?AR8E`nqISWc<0<25,0*2B

186041:!AIVDM,1,1,,A,15N5rePP1Uo?sOVE`Ts<Vgw<28FB,0*5A
!AIVDM,1,1,,B,
186242:$GPGGA,212038.000,3750.0916,N,12225.4537,W,2,10,0.90,-10.9,M,-2
186443:!AIVDM,1,1,,A,15N8b90P00G?nPpEd9rTp?w<0<1l,0*32
!AIVDM,1,1,,B,
186845:!AIVDM,1,1,,A,15NFO6PP03G?ebhE`DO5NOw<0<1d,0*4F

187046:!AIVDM,1,1,,A,15N05I0P02G?RCLEbidT9gw>0@Fn,0*56

187247:$GPGGA,212039.000,3750.0913,N,12225.4529,W,2,10,0.90,-10.9,M,-2
187448:!AIVDM,1,1,,A,ENkb9N9aS7Q1@:7cRa@0h@@@@@@;WpI6:kv1p00003vP000,2
187850:!AIVDM,1,1,,B,15Mw0GP001G?`tNE`WKT6lK@0<1w,0*59

188051:!AIVDM,1,1,,A,D03Ovk0m9N>4g@ffpfpNfp0,2*38
!AIVDM,1,1,,A,D03Ov
188252:!AIVDM,1,1,,B,403Ovk1v0LED`o>jOJEdjNO028GT,0*47
$GPGGA,212040.
188453:Ef=lO02<3P,0*32
!AIVDM,1,1,,B,403OvkQv0LED`o?UhFEf=lO02<3P,0*3
189257:$GPGGA,212041.000,3750.0905,N,12225.4513,W,2,10,0.90,-10.9,M,-2
189458:!AIVDM,1,1,,B,15Mvht0P1sG?WEpE`gCbl?wB08HC,0*38

189659:!AIVDM,1,1,,A,403OtVAv0LEDao?IcPE`45702<3N,0*2D
!AIVDM,1,1,,B,
190061:!AIV
190262:DM,1,1,,B,15N06LPP0Wo@67hE`wjSk?wD26a@,0*2D
$GPGGA,212042.000,
190463:!AIVDM,1,1,,B,ENkb9N9aS7Q1@:7cRa@0h@@@@@@;WpI6:kv1p00003vP000,2
191267:$GPGGA,212043.000,3750.0897,N,12225.4496,W,2,10,0.90,-10.9,M,-2
191468:!AIVDM,1,1,,A,ENkb9NIaS7Q1@:7cRa@1@@@@@@@;Wq9a:l3dH00003vP000,2
191870:!AIVDM,1,1,,B,35NGcj0P00G?aONE`W15WwwF0Bw3,0*0A

192071:!AIVDM,1,1,,B,15MvO30P02G?aH0E`VwcDOwF0HIm,0*64
!AIVDM,2,1,7,A
192272:1,,A,B52MO`h095krQg5JB6ID7wmUoP06,0*3D
$GPGGA,212044.000,3750.
193076:$GPGGA,212045.000,3750.0
193277:888,N,12225.4478,W,2,10,0.90,-11.0,M,-25.2,M,0000,0000*40
$GPG
193880:!AIVDM,1,1,,A,H5NPL60Dh4p0000000000000000,2*65

194081:$GPGGA,212046.000,3750.0882,
194282:N,12225.4470,W,2,10,0.90,-11.0,M,-25.2,M,0000,0000*41
$GPGLL,3
194483:!AIVDM,1,1,,B,ENkb9NIaS7Q1@:7cRa@1@@@@@@@;Wq9a:l3dH00003vP000,2
194684:!AIVDM,1,1,,B,15MvK1PP1Lo?dkFE`T>d8OwL2D1v,0*52

195086:!AIVDM,1,1,,A,15NRILP01do?QdtE`jS:i8SN20St,0*50
$GPGGA,212047.
195287:GPGLL,3750.0878,N,12225.4463,W,212047.000,A,D*49
$GPRMC,212047
196091:$GPGGA,212048.000,3750.0873,
196292:N,12225.4454,W,2,10,0.90,-11.0,M,-25.2,M,0000,0000*47
$GPGLL,3
196694:!AIVDM,1,1,,B,15N5rePP1Uo?sH8E`Up<UOwP26a@,0*5E

197096:!AIVDM,2,1,8,B,55MvO3000001M5cGSS@Lth@Dr08D58000000000t1h?365=6
197297:225.4445,W,212049.000,A,D*4B
$GPGSA,A,3,14,22,32,01,26,03,16,2
197498:!AIVDM,1,1,,A,15Mw0GP002G?`tLE`WKI3TKT0<1w,0*6F

198101:$GPGGA,212050.000,3750.0867,N,12225.4436,W,2,10,0.90,-10.9,M,-2
198302:GPGLL,3750.0867,N,12225.4436,W,212050.000,A,D*41
$GPRMC,212050
198503:!AIVDM,1,1,,B,ENkb9NaaS7Q1@:7cRa@1h@@@@@@;WqSk:l6gh00003vP000,2
199106:$GPGGA,212051.000,3750.0862,N,12225.4428,W,2,10,0.90,-10.9,M,-2
199307:051.000,A,3750.0862,N,12225.4428,W,2.98,126.95,240116,,,D*77
!
199508:!AIVDM,1,1,,B,403OtVAv0LEDko?IcPE`457028N?,0*2C

199709:!AIVDM,1,1,,A,15Mvht0P1tG?W8PE`gNbjwwV0@NE,0*4E

200111:$GPGGA,212052.000,3750.0858,N,12225.4419,W,2,10,0.90,-11.0,M,-2
200312:858,N,12225.4419,W,2.95,125.02,240116,,,D*7F

200915:!AIVDM,1
201116:,1,,A,13P7rUPvhgG?vC@E`WD2F1oV0<1l,0*5B
!AIVDM,1,1,,A,15MvO30P
201317:D*79

201518:!AIVDM,1,1,,A,15MoqLPP02G?buVE`VLpWwwd2<2d,0*22

201719:!AIVDM,1,1,,B,15NEA8
201920:PP00o?VSJEa@HS:?wb2Ki9,0*0A

202121:$GPGGA,212054.000,3750.0850,N,12225.4402,W,2,10,0.90,-11.1,M,-2
202322:0,A,D*46
$GPGSA,A,3,14,22,32,01,26,03,16,23,31,11,,,1.22,0.90,
202523:!AIVDM,1,1,,B,ENkb9NqaS7Q1@:7cRa@2@@@@@@@;Wquu:l9k800003vP000,2
202724:!AIVDM,1,1,,B,15Mw0LP002o?e`RE`Bbp;WQf2<1o,0*7C

203126:$GPGGA,212055.000,3750.0844,N,12225.4394,W,2,10,0.90,-11.1,M,-2
203327:.97,119.41,240116,,,D*7D
!AIVDM,1,1,,A,ENkb9O9aS7Q1@:7cRa@2h@@
203930:!AIVDM,1,1,,B,15?;mv002UG?A4pE`mQaSWch08Pj,0*61

204131:$GPGGA,212056.000,3750.0838,N,12225.4385,W,2,9,0.99,-10.9,M,-25
204332:5MvK1PP1Do?ddnE`Tj<8?wh28Pu,0*38
!AIVDM,1,1,,A,H5NPL64T>F35R5:
204935:!AIVDM,1,1,,A,15MuU00P01o?fIrE`=l;g?wj26a@,0*3C

205136:!AIVDM,1,1,,B,15NRILP01co?QQ:E`jarg`Sj28QO,0*16
$GPGGA,212057.
206141:$GPGGA,212058.000,3750.0828,N,12225.4366,W,2,9,0.99,-10.9,M,-25
206543:!AIVDM,1,1,,B,ENkb9O9aS7Q1@:7cRa@2h@@@@@@;WrfP:l?M`00003vP000,2
206945:!AIVDM,1,1,,B,15Mw0GP000G?`tLE`WKaODKn0D1w,0*68

207146:$GPGGA,212059.000,3750.0823,N,12225.4356,W,2,9,0.99,-10.8,M,-25
207347:1
$GPGSV,4,2,13,01,42,227,32,23,36,280,36,26,27,119,34,22,25,1
207950:!AIVDM,1,1,,A,D03Ovk06AN>40Hffp00Nfp0,2*52
!AIVDM,1,1,,B,D03Ov
208151:0<EN>40Dffp00Nfp0,2*53
!AIVDM,1,1,,A,35NRcaP00fG?uqFE`UuRGQn00
208352:!AIVDM,1,1,,B,15NLR3PP1cG?lf6Eb?K:?Ov0080=,0*0E

208553:!AIVDM,1,1,,B,B3P>>wh0>=koh55JIAEVgwP5oP06,0*59

208955:!AIVDM,1,1,,A,B52P8O@0=ekoMPUJIUc2;wP5oP06,0*37
!AIVDM,1,1,,B,
209156:$GPGGA,212101.000,3750.0814,N,12225.4338,W,2,10,0.90,-10.8,M,-2
209357:!AIVDM,1,1,,B,15Mvht0P1vG?VrrE`gSbSwv20<1o,0*4E

209558:!AIVDM,1,1,,A,403OtVAv0LEE1o?IcPE`4570280t,0*41

210161:$GPGGA,212102.000,3750.0809,N,12225.4329,W,2,10,0.90,-10.8,M,-2
210563:!AIVDM,1,1,,B,ENkb9HI9S@0`897PQT@6;Q@9S@@;W;KG:k><h00003vP000,2
211166:$GPGGA,212103.000,3750.0804,N,12225.4320,W,2,10,0.90,-10.8,M,-2
211367:!AIVDM,1,1,,A,ENkb9HQVTV2h97QUah64ST:@@@@;WV9?:l0M`00003vP000,2
211568:!AIVDM,1,1,,B,D03OtV@BTNfp00N00mPf9Hm`v9H,2*6D

211769:!AIVDM,1,1,,B,13P7rUP1@fG?vFdE`WN2CQn60H2=,0*3F

